[
{
"id": 1,
"title": "Salon @800",
"address": "500 Peter Mokaba Ridge, Essenwood, Durban",
"thumbnail": "assets/img/tmp/listing-1.jpg",
"verified": false,
"longitude": 30.9307498,
"latitude": -29.835074
}
,
{
"id": 2,
"title": "Beauty and Balance",
"address": "G15, 10 Mathews Meyiwa Rd, Greyville, Durban",
"thumbnail": "assets/img/tmp/listing-2.jpg",
"verified": true,
"longitude" : 30.951455,
"latitude":   -29.8415724
}
,
{
"id": 3,
"title": "Bespoke Hair",
"address": "892 Umgeni road, Lion Match Office Park, Windermere, Durban",
"thumbnail": "assets/img/tmp/listing-3.jpg",
"verified": false,
"longitude" :30.9575238,
"latitude":   -29.8241475
}
,
{
"id": 4,
"title": "Sisters Hair & Beauty Salon",
"address": "Shop No.3, 237 O R Tambo Parade, North Beach, Durban",
"thumbnail": "assets/img/tmp/listing-4.jpg",
"verified": true,
"longitude" :30.9575238,
"latitude":   -29.8509272
}
,
{
"id": 5,
"title": "B Scene Hair Designs by Donne",
"address": "234 St. Thomas Rd, Musgrave, Durban",
"thumbnail": "assets/img/tmp/listing-5.jpg",
"verified": false,
"longitude" :30.9296978,
"latitude":   -29.8445445
}
,
{
"id": 6,
"title": "Hair @ Mel's",
"address": "2 Interstate Ave, Umgeni Business Park, Durban",
"thumbnail": "assets/img/tmp/listing-6.jpg",
"verified": false,
"longitude" :30.9305911,
"latitude":   -29.8132011
}
,
{
"id": 7,
"title": "Salon Lisa",
"address": "Shop No. 269, Inanda Rd, Springfield, Durban",
"thumbnail": "assets/img/tmp/listing-7.jpg",
"verified": false,
"longitude" :30.9147398,
"latitude":   -29.8046965
}
,
{
"id": 8,
"title": "Salon Nishani",
"address": "247 Wandsbeck Rd, Palmiet, Durban",
"thumbnail": "assets/img/tmp/listing-8.jpg",
"verified": true,
"longitude" :-29.8205355,
"latitude":   30.8970278
}
,
{
"id": 9,
"title": "Heaven On Earth Beauty Salon",
"address": "1st Floor, 3rd Rock Entrance, Smith Street, 494, Durban Central",
"thumbnail": "assets/img/tmp/listing-9.jpg",
"verified": true,
"longitude" :30.9462001,
"latitude":   -29.860532
}
,
{
"id": 10,
"title": "The Beauty Bar",
"address": "417 Lilian Ngoyi Rd, Windermere, Berea",
"thumbnail": "assets/img/tmp/listing-10.jpg",
"verified": false,
"longitude" :30.9522874,
"latitude":   -29.823636
}
,
{
"id": 11,
"title": "Happiness Hair Salon",
"address": "Shop No. 9, 14 Sylvester Ntuli Rd, Durban",
"thumbnail": "assets/img/tmp/listing-11.jpg",
"verified": false,
"longitude" :30.9658708,
"latitude":   -29.8560185
}
,
{
"id": 12,
"title": "Phophotha",
"address": "109B, Musgrave Centre, 115 Musgrave Rd, Berea, Durban",
"thumbnail": "assets/img/tmp/listing-12.jpg",
"verified": false,
"longitude" :30.9289618,
"latitude":   -29.848843
}
,
{
"id": 13,
"title": "Sixtythree Hairstudio",
"address": "255 Wakesleigh Rd, Bellair, Durban",
"thumbnail": "assets/img/tmp/listing-13.jpg",
"verified": false,
"longitude" :30.8826288,
"latitude":   -29.8844705
}
,
{
"id": 14,
"title": "Imvelo Beauty Square Hair Salon & Nail bar",
"address": "Shop 39, Montclair Mall, Montclair, Durban",
"thumbnail": "assets/img/tmp/listing-14.jpg",
"verified": true,
"longitude" :30.898714,
"latitude":   -29.9236234
}
,
{
"id": 15,
"title": "Golden Scissors",
"address": "139 Stephen Dlamini Rd, Berea, Durban",
"thumbnail": "assets/img/tmp/listing-15.jpg",
"verified": false,
"longitude" :30.9280788,
"latitude":   -29.8473935
}
,
{
"id": 16,
"title": "Kiss from a Rose Salon",
"address": "1081 Woodside Circle Crestview",
"thumbnail": "assets/img/tmp/listing-16.jpg",
"verified": true,
"longitude" :30.981021,
"latitude":   -29.7938337
}

]